$GPGSV,3,1,11,31,49,017,48,14,47,154,46,22,37,105,47,26,28,141,46*71
1263.28
$GPGSV,3,2,11,19,26,294,40,11,21,228,42,32,18,239,41,03,14,319,39*70
1277.78
$GPGSV,3,3,11,06,14,332,38,18,08,085,37,30,02,095,26*42
1299.58
$GPRMC,040512.000,A,2730.2429,S,15300.1365,E,0.58,308.89,100909,,*17
1299.78
$GPVTG,308.89,T,,M,0.58,N,1.1,K*67
1313.97
$GPGGA,040513.000,2730.2428,S,15300.1365,E,1,10,0.8,38.4,M,37.1,M,,0000*7D
1334.45
$GPGSA,A,3,06,31,19,14,26,22,03,18,32,11,,,1.8,0.8,1.7*33
1334.59
$GPRMC,040513.000,A,2730.2428,S,15300.1365,E,0.04,76.61,100909,,*22
1341.36
$GPVTG,76.61,T,,M,0.04,N,0.1,K*53
1341.44
$GPGGA,040514.000,2730.2429,S,15300.1366,E,1,10,0.8,38.4,M,37.1,M,,0000*78
1356.62
$GPGSA,A,3,06,31,19,14,26,22,03,18,32,11,,,1.8,0.8,1.7*33
1378.04
$GPRMC,040514.000,A,2730.2429,S,15300.1366,E,0.30,122.61,100909,,*10
1378.20
$GPVTG,122.61,T,,M,0.30,N,0.6,K*63
1387.21
$GPGGA,040515.000,2730.2431,S,15300.1369,E,1,10,0.8,38.4,M,37.1,M,,0000*7F
1387.39
$GPGSA,A,3,06,31,19,14,26,22,03,18,32,11,,,1.8,0.8,1.7*33
1412.09
$GPRMC,040515.000,A,2730.2431,S,15300.1369,E,2.09,127.63,100909,,*18
1426.09
$GPVTG,127.63,T,,M,2.09,N,3.9,K*60
1426.18
$GPGGA,040516.000,2730.2436,S,15300.1376,E,1,10,0.8,38.4,M,37.1,M,,0000*75
1434.32
$GPGSA,A,3,06,31,19,14,26,22,03,18,32,11,,,1.8,0.8,1.7*33
1434.47
$GPRMC,040516.000,A,2730.2436,S,15300.1376,E,3.84,136.61,100909,,*14
1465.19
$GPVTG,136.61,T,,M,3.84,N,7.1,K*6A
1465.29
$GPGGA,040517.000,2730.2447,S,15300.1385,E,1,10,0.8,38.6,M,37.1,M,,0000*7C
1730.70
$GPGSA,A,3,06,31,19,14,26,22,03,18,32,11,,,1.8,0.8,1.7*33
1855.75
$GPGSV,3,1,11,31,49,017,41,14,47,154,45,22,37,105,46,26,28,141,44*78
2027.63
$GPGSV,3,2,11,19,26,294,38,11,21,228,40,32,18,239,33,03,14,319,33*72
2199.45
$GPGSV,3,3,11,06,14,332,38,18,08,085,40,30,02,095,22*46
2308.85
$GPRMC,040517.000,A,2730.2447,S,15300.1385,E,5.62,147.59,100909,,*1C
2465.08
$GPVTG,147.59,T,,M,5.62,N,10.4,K*5A
2559.39
$GPGGA,040518.000,2730.2463,S,15300.1395,E,1,10,0.8,39.0,M,37.1,M,,0000*73
2730.71
$GPGSA,A,3,06,31,19,14,26,22,03,18,32,11,,,1.8,0.8,1.7*33
2902.56
$GPRMC,040518.000,A,2730.2463,S,15300.1395,E,7.58,155.15,100909,,*14
3011.97
$GPVTG,155.15,T,,M,7.58,N,14.0,K*5A
3121.33
$GPGGA,040519.000,2730.2483,S,15300.1406,E,1,10,0.8,39.5,M,37.1,M,,0000*74
3715.06
$GPGSA,A,3,06,31,19,14,26,22,03,18,32,11,,,1.8,0.8,1.7*33
3902.53
$GPRMC,040519.000,A,2730.2483,S,15300.1406,E,7.54,153.33,100909,,*18
4011.94
$GPVTG,153.33,T,,M,7.54,N,14.0,K*54
4090.08
$GPGGA,040520.000,2730.2499,S,15300.1417,E,1,10,0.8,40.0,M,37.1,M,,0000*7E
4715.04
$GPGSA,A,3,06,31,19,14,26,22,03,18,32,11,,,1.8,0.8,1.7*33
4855.73
$GPRMC,040520.000,A,2730.2499,S,15300.1417,E,6.03,146.22,100909,,*1E
5012.03
$GPVTG,146.22,T,,M,6.03,N,11.2,K*54
5105.69
$GPGGA,040521.000,2730.2510,S,15300.1427,E,1,10,0.8,40.4,M,37.1,M,,0000*78
5715.05
$GPGSA,A,3,06,31,19,14,26,22,03,18,32,11,,,1.8,0.8,1.7*33
5856.48
$GPRMC,040521.000,A,2730.2510,S,15300.1427,E,4.00,136.65,100909,,*19
6058.79
$GPVTG,136.65,T,,M,4.00,N,7.4,K*60
6090.05
$GPGGA,040522.000,2730.2518,S,15300.1439,E,1,10,0.8,40.8,M,37.1,M,,0000*70
6715.06
$GPGSA,A,3,06,31,19,14,26,22,03,18,32,11,,,1.8,0.8,1.7*33
6855.65
$GPGSV,3,1,11,31,49,017,46,14,47,154,44,22,37,105,45,26,28,141,42*7B
7058.79
$GPGSV,3,2,11,19,26,294,42,11,21,228,40,32,18,239,40,03,14,319,39*71
7168.13
$GPGSV,3,3,11,06,14,332,39,18,08,085,31,30,02,095,22*41
7308.99
$GPRMC,040522.000,A,2730.2518,S,15300.1439,E,5.31,123.13,100909,,*1B
7465.06
$GPVTG,123.13,T,,M,5.31,N,9.8,K*64
7558.77
$GPGGA,040523.000,2730.2522,S,15300.1458,E,1,10,0.8,41.1,M,37.1,M,,0000*77
7761.89
$GPGSA,A,3,06,31,19,14,26,22,03,18,32,11,,,1.8,0.8,1.7*33
7871.55
$GPRMC,040523.000,A,2730.2522,S,15300.1458,E,7.63,93.49,100909,,*24
8011.90
$GPVTG,93.49,T,,M,7.63,N,14.1,K*61
8090.15
$GPGGA,040524.000,2730.2517,S,15300.1485,E,1,10,0.8,41.1,M,37.1,M,,0000*76
8761.87
$GPGSA,A,3,06,31,19,14,26,22,03,18,32,11,,,1.8,0.8,1.7*33
8871.21
$GPRMC,040524.000,A,2730.2517,S,15300.1485,E,9.92,67.47,100909,,*20
9011.93
$GPVTG,67.47,T,,M,9.92,N,18.4,K*6D
9090.01
$GPGGA,040525.000,2730.2503,S,15300.1520,E,1,09,0.8,41.1,M,37.1,M,,0000*74
9715.50
$GPGSA,A,3,06,31,19,14,26,22,18,32,11,,,,1.9,0.8,1.7*31
9839.98
$GPRMC,040525.000,A,2730.2503,S,15300.1520,E,13.92,62.69,100909,,*18
10011.84
$GPVTG,62.69,T,,M,13.92,N,25.8,K*5D
10089.96
$GPGGA,040526.000,2730.2482,S,15300.1565,E,1,08,1.0,41.1,M,37.1,M,,0000*76
10714.96
$GPGSA,A,3,06,31,19,14,26,22,32,11,,,,,2.9,1.0,2.7*31
10886.81
$GPRMC,040526.000,A,2730.2482,S,15300.1565,E,17.49,63.13,100909,,*1C
10996.20
$GPVTG,63.13,T,,M,17.49,N,32.4,K*59
11089.95
$GPGGA,040527.000,2730.2459,S,15300.1619,E,1,10,0.8,40.9,M,37.1,M,,0000*70
11761.82
$GPGSA,A,3,06,31,19,14,26,22,03,18,32,11,,,1.8,0.8,1.7*33
11855.89
$GPGSV,3,1,11,31,49,017,45,14,47,154,44,22,37,105,45,26,28,141,41*7B
12043.04
$GPGSV,3,2,11,19,26,294,42,11,21,228,37,32,18,239,40,03,14,319,37*7F
12214.95
$GPGSV,3,3,11,06,14,332,32,18,08,085,42,30,02,095,22*4E
12324.28
$GPRMC,040527.000,A,2730.2459,S,15300.1619,E,20.57,65.01,100909,,*1D
12464.98
$GPVTG,65.01,T,,M,20.57,N,38.1,K*58
12543.71
$GPGGA,040528.000,2730.2435,S,15300.1682,E,1,10,0.8,40.7,M,37.1,M,,0000*79
12746.45
$GPGSA,A,3,06,31,19,14,26,22,03,18,32,11,,,1.8,0.8,1.7*33
12871.16
$GPRMC,040528.000,A,2730.2435,S,15300.1682,E,22.46,69.28,100909,,*1F
13027.43
$GPVTG,69.28,T,,M,22.46,N,41.6,K*54
13121.20
$GPGGA,040529.000,2730.2415,S,15300.1753,E,1,10,0.8,40.3,M,37.1,M,,0000*73
13714.95
$GPGSA,A,3,06,31,19,14,26,22,03,18,32,11,,,1.8,0.8,1.7*33
13871.34
$GPRMC,040529.000,A,2730.2415,S,15300.1753,E,24.84,74.30,100909,,*1C
14043.03
$GPVTG,74.30,T,,M,24.84,N,46.0,K*58
14105.53
$GPGGA,040530.000,2730.2397,S,15300.1832,E,1,10,0.8,40.0,M,37.1,M,,0000*7D
14714.94
$GPGSA,A,3,06,31,19,14,26,22,03,18,32,11,,,1.8,0.8,1.7*33
14855.50
$GPRMC,040530.000,A,2730.2397,S,15300.1832,E,26.67,77.75,100909,,*1C
15027.39
$GPVTG,77.75,T,,M,26.67,N,49.4,K*5E
15089.89
$GPGGA,040531.000,2730.2382,S,15300.1917,E,1,10,0.8,39.6,M,37.1,M,,0000*76
15730.47
$GPGSA,A,3,06,31,19,14,26,22,03,18,32,11,,,1.8,0.8,1.7*33
15871.54
$GPRMC,040531.000,A,2730.2382,S,15300.1917,E,27.99,79.58,100909,,*1E
16042.99
$GPVTG,79.58,T,,M,27.99,N,51.8,K*5A
16105.51
$GPGGA,040532.000,2730.2369,S,15300.2005,E,1,10,0.8,39.2,M,37.1,M,,0000*7D
16730.51
$GPGSA,A,3,06,31,19,14,26,22,03,18,32,11,,,1.8,0.8,1.7*33
16855.48
$GPGSV,3,1,11,31,49,017,45,14,47,154,42,22,37,105,45,26,28,141,40*7C
17027.37
$GPGSV,3,2,11,19,26,294,42,11,21,228,34,32,18,239,32,03,14,319,39*77
17168.49
$GPGSV,3,3,11,06,14,332,39,18,08,085,41,30,02,095,29*4D
17324.21
$GPRMC,040532.000,A,2730.2369,S,15300.2005,E,28.83,80.52,100909,,*19
17496.22
$GPVTG,80.52,T,,M,28.83,N,53.4,K*5C
17558.61
$GPGGA,040533.000,2730.2355,S,15300.2097,E,1,10,0.8,38.7,M,37.1,M,,0000*7C
17730.46
$GPGSA,A,3,06,31,19,14,26,22,03,18,32,11,,,1.8,0.8,1.7*33
17871.52
$GPRMC,040533.000,A,2730.2355,S,15300.2097,E,29.84,80.60,100909,,*1B
18027.56
$GPVTG,80.60,T,,M,29.84,N,55.3,K*5A
18105.46
$GPGGA,040534.000,2730.2341,S,15300.2190,E,1,10,0.8,38.0,M,37.1,M,,0000*7F
18730.48
$GPGSA,A,3,06,31,19,14,26,22,03,18,32,11,,,1.8,0.8,1.7*33
18871.13
$GPRMC,040534.000,A,2730.2341,S,15300.2190,E,30.17,80.42,100909,,*1D
19027.32
$GPVTG,80.42,T,,M,30.17,N,55.9,K*52
19121.09
$GPGGA,040535.000,2730.2327,S,15300.2284,E,1,10,0.8,37.4,M,37.1,M,,0000*73
19730.43
$GPGSA,A,3,06,31,19,14,26,22,03,18,32,11,,,1.8,0.8,1.7*33
19871.06
$GPRMC,040535.000,A,2730.2327,S,15300.2284,E,30.11,80.17,100909,,*1C
20011.73
$GPVTG,80.17,T,,M,30.11,N,55.8,K*55
20105.43
$GPGGA,040536.000,2730.2309,S,15300.2376,E,1,10,0.8,36.6,M,37.1,M,,0000*73
20730.41
$GPGSA,A,3,06,31,19,14,26,22,03,18,32,11,,,1.8,0.8,1.7*33
20902.28
$GPRMC,040536.000,A,2730.2309,S,15300.2376,E,29.67,76.22,100909,,*19
21011.66
$GPVTG,76.22,T,,M,29.67,N,54.9,K*53
21105.44
$GPGGA,040537.000,2730.2284,S,15300.2466,E,1,10,0.8,35.6,M,37.1,M,,0000*73
21730.40
$GPGSA,A,3,06,31,19,14,26,22,03,18,32,11,,,1.8,0.8,1.7*33
21855.94
$GPGSV,3,1,11,31,49,017,45,14,47,154,42,22,37,105,45,26,28,141,41*7D
22027.31
$GPGSV,3,2,11,19,26,294,41,11,21,228,36,32,18,239,38,03,14,319,33*76
22199.17
$GPGSV,3,3,11,06,14,332,31,18,08,085,40,30,02,095,34*48
22308.57
$GPRMC,040537.000,A,2730.2284,S,15300.2466,E,29.94,68.75,100909,,*1B
22480.50
$GPVTG,68.75,T,,M,29.94,N,55.5,K*5F
22542.91
$GPGGA,040538.000,2730.2248,S,15300.2553,E,1,10,0.8,34.6,M,37.1,M,,0000*7A
22730.38
$GPGSA,A,3,06,31,19,14,26,22,03,18,32,11,,,1.8,0.8,1.7*33
22902.25
$GPRMC,040538.000,A,2730.2248,S,15300.2553,E,30.66,62.02,100909,,*1C
23011.62
$GPVTG,62.02,T,,M,30.66,N,56.8,K*5E
23121.03
$GPGGA,040539.000,2730.2203,S,15300.2636,E,1,10,0.8,34.0,M,37.1,M,,0000*72
23730.38
$GPGSA,A,3,06,31,19,14,26,22,03,18,32,11,,,1.8,0.8,1.7*33
23902.23
$GPRMC,040539.000,A,2730.2203,S,15300.2636,E,30.78,55.94,100909,,*16
24011.62
$GPVTG,55.94,T,,M,30.78,N,57.0,K*53
24089.81
$GPGGA,040540.000,2730.2151,S,15300.2713,E,1,10,0.8,33.5,M,37.1,M,,0000*7C
24714.75
$GPGSA,A,3,06,31,19,14,26,22,03,18,32,11,,,1.8,0.8,1.7*33
24855.37
$GPRMC,040540.000,A,2730.2151,S,15300.2713,E,30.23,50.14,100909,,*19
25027.22
$GPVTG,50.14,T,,M,30.23,N,56.0,K*51
25120.96
$GPGGA,040541.000,2730.2094,S,15300.2782,E,1,10,0.8,33.1,M,37.1,M,,0000*79
25714.72
$GPGSA,A,3,06,31,19,14,26,22,03,18,32,11,,,1.8,0.8,1.7*33
25855.40
$GPRMC,040541.000,A,2730.2094,S,15300.2782,E,29.54,44.26,100909,,*14
26011.83
$GPVTG,44.26,T,,M,29.54,N,54.7,K*58
26105.35
$GPGGA,040542.000,2730.2033,S,15300.2844,E,1,10,0.8,32.9,M,37.1,M,,0000*7B
26714.69
$GPGSA,A,3,06,31,19,14,26,22,03,18,32,11,,,1.8,0.8,1.7*33
26886.60
$GPGSV,3,1,11,31,49,017,45,14,47,154,42,22,37,105,41,26,28,141,33*7C
27058.44
$GPGSV,3,2,11,19,26,294,42,11,21,228,42,32,18,239,41,03,14,319,34*7F
27168.19
$GPGSV,3,3,11,06,14,332,34,18,08,085,32,30,02,095,30*4C
27308.46
$GPRMC,040542.000,A,2730.2033,S,15300.2844,E,28.85,40.87,100909,,*1D
27480.38
$GPVTG,40.87,T,,M,28.85,N,53.4,K*5E
27542.82
$GPGGA,040543.000,2730.1972,S,15300.2902,E,1,10,0.8,32.7,M,37.1,M,,0000*78
27714.73
$GPGSA,A,3,06,31,19,14,26,22,03,18,32,11,,,1.8,0.8,1.7*33
27855.31
$GPRMC,040543.000,A,2730.1972,S,15300.2902,E,28.63,39.86,100909,,*17
28011.75
$GPVTG,39.86,T,,M,28.63,N,53.0,K*5D
28120.92
$GPGGA,040544.000,2730.1910,S,15300.2960,E,1,10,0.8,32.3,M,37.1,M,,0000*7B
28714.72
$GPGSA,A,3,06,31,19,14,26,22,03,18,32,11,,,1.8,0.8,1.7*33
28886.53
$GPRMC,040544.000,A,2730.1910,S,15300.2960,E,28.90,39.89,100909,,*13
29058.40
$GPVTG,39.89,T,,M,28.90,N,53.5,K*5B
29105.30
$GPGGA,040545.000,2730.1847,S,15300.3019,E,1,10,0.8,31.8,M,37.1,M,,0000*77
29714.66
$GPGSA,A,3,06,31,19,14,26,22,03,18,32,11,,,1.8,0.8,1.7*33
29855.28
$GPRMC,040545.000,A,2730.1847,S,15300.3019,E,29.20,39.99,100909,,*1C
30011.55
$GPVTG,39.99,T,,M,29.20,N,54.1,K*53
30120.87
$GPGGA,040546.000,2730.1784,S,15300.3078,E,1,10,0.8,31.3,M,37.1,M,,0000*78
30761.55
$GPGSA,A,3,06,31,19,14,26,22,03,18,32,11,,,1.8,0.8,1.7*33
30870.90
$GPRMC,040546.000,A,2730.1784,S,15300.3078,E,29.27,40.50,100909,,*14
31042.83
$GPVTG,40.50,T,,M,29.27,N,54.2,K*5C
31105.25
$GPGGA,040547.000,2730.1722,S,15300.3137,E,1,10,0.8,30.7,M,37.1,M,,0000*7A
31761.51
$GPGSA,A,3,06,31,19,14,26,22,03,18,32,11,,,1.8,0.8,1.7*33
31870.84
$GPGSV,3,1,11,31,49,017,45,14,47,154,42,22,37,105,43,26,28,141,40*7A
32011.50
$GPGSV,3,2,11,19,26,294,41,11,21,228,42,32,18,239,37,03,14,319,32*7B
32167.85
$GPGSV,3,3,11,06,14,332,34,18,08,085,27,30,02,095,24*4D
32323.96
$GPRMC,040547.000,A,2730.1722,S,15300.3137,E,28.49,40.32,100909,,*1E
32464.62
$GPVTG,40.32,T,,M,28.49,N,52.8,K*5D
32542.74
$GPGGA,040548.000,2730.1662,S,15300.3193,E,1,10,0.8,30.1,M,37.1,M,,0000*78
32714.68
$GPGSA,A,3,06,31,19,14,26,22,03,18,32,11,,,1.8,0.8,1.7*33
32886.48
$GPRMC,040548.000,A,2730.1662,S,15300.3193,E,26.86,39.25,100909,,*1F
33027.09
$GPVTG,39.25,T,,M,26.86,N,49.8,K*52
33120.84
$GPGGA,040549.000,2730.1606,S,15300.3245,E,1,10,0.8,29.6,M,37.1,M,,0000*7C
33745.94
$GPGSA,A,3,06,31,19,14,26,22,03,18,32,11,,,1.8,0.8,1.7*33
33870.83
$GPRMC,040549.000,A,2730.1606,S,15300.3245,E,25.19,39.86,100909,,*18
34027.09
$GPVTG,39.86,T,,M,25.19,N,46.7,K*5E
34120.83
$GPGGA,040550.000,2730.1553,S,15300.3297,E,1,09,1.0,29.1,M,37.1,M,,0000*7E
34714.58
$GPGSA,A,3,06,31,19,14,26,22,03,32,11,,,,2.7,1.0,2.5*3E
34870.85
$GPRMC,040550.000,A,2730.1553,S,15300.3297,E,24.64,41.92,100909,,*1D
35027.06
$GPVTG,41.92,T,,M,24.64,N,45.6,K*5D
35089.58
$GPGGA,040551.000,2730.1503,S,15300.3349,E,1,10,0.8,28.4,M,37.1,M,,0000*7D
35714.58
$GPGSA,A,3,06,31,19,14,26,22,03,18,32,11,,,1.8,0.8,1.7*33
35870.81
$GPRMC,040551.000,A,2730.1503,S,15300.3349,E,23.91,44.25,100909,,*1F
36042.68
$GPVTG,44.25,T,,M,23.91,N,44.3,K*5D
36105.18
$GPGGA,040552.000,2730.1461,S,15300.3399,E,1,10,0.8,27.7,M,37.1,M,,0000*7A
36730.17
$GPGSA,A,3,06,31,19,14,26,22,03,18,32,11,,,1.8,0.8,1.7*33
36855.17
$GPGSV,3,1,11,31,49,017,45,14,47,154,43,22,37,105,44,26,28,141,40*7C
37027.03
$GPGSV,3,2,11,19,26,294,42,11,21,228,42,32,18,239,36,03,14,319,32*79
37168.14
$GPGSV,3,3,11,06,14,332,26,18,08,085,38,30,02,095,16*41
37324.06
$GPRMC,040552.000,A,2730.1461,S,15300.3399,E,19.75,48.73,100909,,*18
37495.84
$GPVTG,48.73,T,,M,19.75,N,36.6,K*51
37574.00
$GPGGA,040553.000,2730.1432,S,15300.3438,E,1,10,0.8,27.2,M,37.1,M,,0000*74
37730.15
$GPGSA,A,3,06,31,19,14,26,22,03,18,32,11,,,1.8,0.8,1.7*33
37870.80
$GPRMC,040553.000,A,2730.1432,S,15300.3438,E,13.11,53.01,100909,,*14
38042.66
$GPVTG,53.01,T,,M,13.11,N,24.3,K*50
38105.16
$GPGGA,040554.000,2730.1415,S,15300.3464,E,1,10,0.8,26.6,M,37.1,M,,0000*7A
38730.13
$GPGSA,A,3,06,31,19,14,26,22,03,18,32,11,,,1.8,0.8,1.7*33
38855.17
$GPRMC,040554.000,A,2730.1415,S,15300.3464,E,7.71,55.74,100909,,*28
39027.01
$GPVTG,55.74,T,,M,7.71,N,14.3,K*64
39105.12
$GPGGA,040555.000,2730.1407,S,15300.3479,E,1,10,0.8,26.5,M,37.1,M,,0000*77
39745.81
$GPGSA,A,3,06,31,19,14,26,22,03,18,32,11,,,1.8,0.8,1.7*33
39855.14
$GPRMC,040555.000,A,2730.1407,S,15300.3479,E,3.88,58.51,100909,,*2E
40027.12
$GPVTG,58.51,T,,M,3.88,N,7.2,K*5F
40089.49
$GPGGA,040556.000,2730.1403,S,15300.3487,E,1,10,0.8,26.5,M,37.1,M,,0000*71
40714.49
$GPGSA,A,3,06,31,19,14,26,22,03,18,32,11,,,1.8,0.8,1.7*33
40870.78
$GPRMC,040556.000,A,2730.1403,S,15300.3487,E,2.37,60.18,100909,,*2B
41026.99
$GPVTG,60.18,T,,M,2.37,N,4.4,K*59
41089.49
$GPGGA,040557.000,2730.1399,S,15300.3493,E,1,10,0.8,26.5,M,37.1,M,,0000*71
41730.11
$GPGSA,A,3,06,31,19,14,26,22,03,18,32,11,,,1.8,0.8,1.7*33
41855.10
$GPGSV,3,1,11,31,49,017,45,14,47,154,43,22,37,105,45,26,28,141,42*7F
42011.35
$GPGSV,3,2,11,19,26,294,41,11,21,228,41,32,18,239,41,03,14,319,40*7C
42183.24
$GPGSV,3,3,11,06,14,332,37,18,08,085,38,30,02,095,16*41
42323.84
$GPRMC,040557.000,A,2730.1399,S,15300.3493,E,2.45,59.93,100909,,*27
42480.08
$GPVTG,59.93,T,,M,2.45,N,4.5,K*54
42542.60
$GPGGA,040558.000,2730.1396,S,15300.3499,E,1,10,0.8,26.4,M,37.1,M,,0000*7A
42776.96
$GPGSA,A,3,06,31,19,14,26,22,03,18,32,11,,,1.8,0.8,1.7*33
42855.11
$GPRMC,040558.000,A,2730.1396,S,15300.3499,E,2.48,60.01,100909,,*21
43026.98
$GPVTG,60.01,T,,M,2.48,N,4.6,K*5B
43089.46
$GPGGA,040559.000,2730.1393,S,15300.3507,E,1,10,0.8,26.3,M,37.1,M,,0000*7F
43776.95
$GPGSA,A,3,06,31,19,14,26,22,03,18,32,11,,,1.8,0.8,1.7*33
43855.28
$GPRMC,040559.000,A,2730.1393,S,15300.3507,E,3.13,60.21,100909,,*2E
44026.99
$GPVTG,60.21,T,,M,3.13,N,5.8,K*59
44089.46
$GPGGA,040600.000,2730.1386,S,15300.3519,E,1,10,0.8,26.2,M,37.1,M,,0000*7A
44714.43
$GPGSA,A,3,06,31,19,14,26,22,03,18,32,11,,,1.8,0.8,1.7*33
44855.06
$GPRMC,040600.000,A,2730.1386,S,15300.3519,E,5.93,60.43,100909,,*20
45011.29
$GPVTG,60.43,T,,M,5.93,N,11.0,K*6E
45089.42
$GPGGA,040601.000,2730.1375,S,15300.3541,E,1,10,0.8,26.2,M,37.1,M,,0000*7A
45730.06
$GPGSA,A,3,06,31,19,14,26,22,03,18,32,11,,,1.8,0.8,1.7*33
45870.75
$GPRMC,040601.000,A,2730.1375,S,15300.3541,E,10.29,61.52,100909,,*14
46026.93
$GPVTG,61.52,T,,M,10.29,N,19.1,K*53
46105.06
$GPGGA,040602.000,2730.1361,S,15300.3573,E,1,10,0.8,26.1,M,37.1,M,,0000*7E
46730.03
$GPGSA,A,3,06,31,19,14,26,22,03,18,32,11,,,1.8,0.8,1.7*33
46901.92
$GPGSV,3,1,11,31,49,017,44,14,47,154,44,22,37,105,46,26,28,141,42*7A
47011.26
$GPGSV,3,2,11,19,26,294,42,11,21,228,41,32,18,239,40,03,14,319,34*7D
47167.52
$GPGSV,3,3,11,06,14,332,32,18,08,085,39,30,02,095,15*46
47339.36
$GPRMC,040602.000,A,2730.1361,S,15300.3573,E,12.49,62.68,100909,,*1D
47464.42
$GPVTG,62.68,T,,M,12.49,N,23.1,K*54
47542.63
$GPGGA,040603.000,2730.1343,S,15300.3613,E,1,10,0.8,26.0,M,37.1,M,,0000*7B
47714.38
$GPGSA,A,3,06,31,19,14,26,22,03,18,32,11,,,1.8,0.8,1.7*33
47855.04
$GPRMC,040603.000,A,2730.1343,S,15300.3613,E,16.13,63.30,100909,,*1E
48034.57
$GPVTG,63.30,T,,M,16.13,N,29.9,K*51
48120.62
$GPGGA,040604.000,2730.1321,S,15300.3662,E,1,10,0.8,26.4,M,37.1,M,,0000*7A
48714.36
$GPGSA,A,3,06,31,19,14,26,22,03,18,32,11,,,1.8,0.8,1.7*33
48886.23
$GPRMC,040604.000,A,2730.1321,S,15300.3662,E,18.81,62.75,100909,,*1E
49058.13
$GPVTG,62.75,T,,M,18.81,N,34.8,K*59
49089.41
$GPGGA,040605.000,2730.1296,S,15300.3716,E,1,10,0.8,26.9,M,37.1,M,,0000*79
49714.40
$GPGSA,A,3,06,31,19,14,26,22,03,18,32,11,,,1.8,0.8,1.7*33
49870.61
$GPRMC,040605.000,A,2730.1296,S,15300.3716,E,20.48,62.44,100909,,*1C
50011.31
$GPVTG,62.44,T,,M,20.48,N,37.9,K*57
50120.58
$GPGGA,040606.000,2730.1270,S,15300.3772,E,1,10,0.8,27.1,M,37.1,M,,0000*79
50714.43
$GPGSA,A,3,06,31,19,14,26,22,03,18,32,11,,,1.8,0.8,1.7*33
50870.57
$GPRMC,040606.000,A,2730.1270,S,15300.3772,E,20.05,61.82,100909,,*15
51011.28
$GPVTG,61.82,T,,M,20.05,N,37.1,K*5F
51089.56
$GPGGA,040607.000,2730.1243,S,15300.3827,E,1,10,0.8,27.3,M,37.1,M,,0000*75
51714.32
$GPGSA,A,3,06,31,19,14,26,22,03,18,32,11,,,1.8,0.8,1.7*33
51886.21
$GPGSV,3,1,11,31,49,017,44,14,47,154,44,22,37,105,46,26,28,141,42*7A
52042.54
$GPGSV,3,2,11,19,26,294,30,11,21,228,41,32,18,239,40,03,14,319,29*74
52167.44
$GPGSV,3,3,11,06,14,332,34,18,08,085,25,30,02,095,15*4D
52323.66
$GPRMC,040607.000,A,2730.1243,S,15300.3827,E,19.85,61.38,100909,,*18
52479.94
$GPVTG,61.38,T,,M,19.85,N,36.8,K*54
52542.63
$GPGGA,040608.000,2730.1217,S,15300.3881,E,1,10,0.8,28.2,M,37.1,M,,0000*79
52729.95
$GPGSA,A,3,06,31,19,14,26,22,03,18,32,11,,,1.8,0.8,1.7*33
52870.54
$GPRMC,040608.000,A,2730.1217,S,15300.3881,E,19.89,60.30,100909,,*1F
53011.23
$GPVTG,60.30,T,,M,19.89,N,36.8,K*51
53121.05
$GPGGA,040609.000,2730.1190,S,15300.3933,E,1,10,0.8,28.4,M,37.1,M,,0000*7A
53714.31
$GPGSA,A,3,06,31,19,14,26,22,03,18,32,11,,,1.8,0.8,1.7*33
53886.21
$GPRMC,040609.000,A,2730.1190,S,15300.3933,E,18.41,58.03,100909,,*14
54042.40
$GPVTG,58.03,T,,M,18.41,N,34.1,K*54
54104.90
$GPGGA,040610.000,2730.1162,S,15300.3980,E,1,10,0.8,28.5,M,37.1,M,,0000*76
54714.30
$GPGSA,A,3,06,31,19,14,26,22,03,18,32,11,,,1.8,0.8,1.7*33
54870.64
$GPRMC,040610.000,A,2730.1162,S,15300.3980,E,17.48,54.97,100909,,*1E
55042.43
$GPVTG,54.97,T,,M,17.48,N,32.4,K*50
55104.90
$GPGGA,040611.000,2730.1131,S,15300.4024,E,1,10,0.8,28.7,M,37.1,M,,0000*73
55745.60
$GPGSA,A,3,06,31,19,14,26,22,03,18,32,11,,,1.8,0.8,1.7*33
55917.35
$GPRMC,040611.000,A,2730.1131,S,15300.4024,E,18.22,49.18,100909,,*11
56026.77
$GPVTG,49.18,T,,M,18.22,N,33.7,K*5A
56089.27
$GPGGA,040612.000,2730.1097,S,15300.4068,E,1,09,1.0,28.9,M,37.1,M,,0000*7A
56714.28
$GPGSA,A,3,06,31,19,14,26,22,03,32,11,,,,2.7,1.0,2.5*3E
56870.67
$GPGSV,3,1,11,31,49,017,44,14,47,154,44,22,37,105,46,26,28,141,43*7B
57042.35
$GPGSV,3,2,11,19,26,294,43,11,21,228,41,32,18,239,40,03,14,319,40*7F
57183.04
$GPGSV,3,3,11,06,14,332,36,18,08,085,21,30,02,095,16*48
57323.78
$GPRMC,040612.000,A,2730.1097,S,15300.4068,E,19.20,48.64,100909,,*1E
57448.69
$GPVTG,48.64,T,,M,19.20,N,35.6,K*54
57573.69
$GPGGA,040613.000,2730.1065,S,15300.4117,E,1,09,1.0,29.1,M,37.1,M,,0000*76
57745.49
$GPGSA,A,3,06,31,19,14,26,22,03,32,11,,,,2.7,1.0,2.5*3E
57839.27
$GPRMC,040613.000,A,2730.1065,S,15300.4117,E,19.71,58.76,100909,,*1D
58042.34
$GPVTG,58.76,T,,M,19.71,N,36.5,K*52
58089.23
$GPGGA,040614.000,2730.1042,S,15300.4174,E,1,09,1.0,29.7,M,37.1,M,,0000*77
58745.47
$GPGSA,A,3,06,31,19,14,26,22,03,32,11,,,,2.7,1.0,2.5*3E
58854.83
$GPRMC,040614.000,A,2730.1042,S,15300.4174,E,20.60,72.11,100909,,*19
59026.71
$GPVTG,72.11,T,,M,20.60,N,38.1,K*5B
59105.16
$GPGGA,040615.000,2730.1024,S,15300.4236,E,1,10,0.8,30.4,M,37.1,M,,0000*79
59729.82
$GPGSA,A,3,06,31,19,14,26,22,03,18,32,11,,,1.8,0.8,1.7*33
59870.51
$GPRMC,040615.000,A,2730.1024,S,15300.4236,E,20.98,72.33,100909,,*1A
60042.32
$GPVTG,72.33,T,,M,20.98,N,38.8,K*55
60104.83
$GPGGA,040616.000,2730.1003,S,15300.4297,E,1,10,0.8,31.2,M,37.1,M,,0000*73
60729.80
$GPGSA,A,3,06,31,19,14,26,22,03,18,32,11,,,1.8,0.8,1.7*33
60870.45
$GPRMC,040616.000,A,2730.1003,S,15300.4297,E,21.33,64.48,100909,,*1C
61011.06
$GPVTG,64.48,T,,M,21.33,N,39.5,K*52
61104.81
$GPGGA,040617.000,2730.0973,S,15300.4356,E,1,10,0.8,31.9,M,37.1,M,,0000*7A
61745.42
$GPGSA,A,3,06,31,19,14,26,22,03,18,32,11,,,1.8,0.8,1.7*33
61854.81
$GPGSV,3,1,11,31,50,017,44,14,47,153,44,22,37,104,45,26,27,141,33*7E
62026.66
$GPGSV,3,2,11,19,26,294,42,11,21,228,41,32,18,238,40,03,14,319,39*71
62198.55
$GPGSV,3,3,11,06,13,333,36,18,08,084,30,30,03,096,15*4E
62307.91
$GPRMC,040617.000,A,2730.0973,S,15300.4356,E,21.90,56.67,100909,,*1B
62479.82
$GPVTG,56.67,T,,M,21.90,N,40.6,K*5A
62557.93
$GPGGA,040618.000,2730.0938,S,15300.4411,E,1,10,0.8,32.4,M,37.1,M,,0000*70
62729.78
$GPGSA,A,3,06,31,19,14,26,22,03,18,32,11,,,1.8,0.8,1.7*33
62901.69
$GPRMC,040618.000,A,2730.0938,S,15300.4411,E,21.36,51.17,100909,,*13
63011.03
$GPVTG,51.17,T,,M,21.36,N,39.6,K*58
63104.78
$GPGGA,040619.000,2730.0902,S,15300.4459,E,1,10,0.8,32.7,M,37.1,M,,0000*77
63729.89
$GPGSA,A,3,06,31,19,14,26,22,03,18,32,11,,,1.8,0.8,1.7*33
63901.63
$GPRMC,040619.000,A,2730.0902,S,15300.4459,E,18.65,49.29,100909,,*1F
64011.02
$GPVTG,49.29,T,,M,18.65,N,34.5,K*5E
64104.79
$GPGGA,040620.000,2730.0873,S,15300.4498,E,1,10,0.8,32.9,M,37.1,M,,0000*79
64729.76
$GPGSA,A,3,06,31,19,14,26,22,03,18,32,11,,,1.8,0.8,1.7*33
64854.74
$GPRMC,040620.000,A,2730.0873,S,15300.4498,E,13.47,52.65,100909,,*16
65026.66
$GPVTG,52.65,T,,M,13.47,N,24.9,K*5A
65105.12
$GPGGA,040621.000,2730.0851,S,15300.4533,E,1,10,0.8,32.9,M,37.1,M,,0000*78
65714.11
$GPGSA,A,3,06,31,19,14,26,22,03,18,32,11,,,1.8,0.8,1.7*33
65854.75
$GPRMC,040621.000,A,2730.0851,S,15300.4533,E,13.65,55.24,100909,,*15
66026.62
$GPVTG,55.24,T,,M,13.65,N,25.3,K*53
66120.37
$GPGGA,040622.000,2730.0825,S,15300.4569,E,1,10,0.8,32.8,M,37.1,M,,0000*76
66714.10
$GPGSA,A,3,06,31,19,14,26,22,03,18,32,11,,,1.8,0.8,1.7*33
66854.76
$GPGSV,3,1,11,31,50,017,44,14,47,153,43,22,37,104,45,26,27,141,40*7D
67026.61
$GPGSV,3,2,11,19,26,294,42,11,21,228,41,32,18,238,40,03,14,319,35*7D
67182.86
$GPGSV,3,3,11,06,13,333,37,18,08,084,38,30,03,096,23*42
67354.71
$GPRMC,040622.000,A,2730.0825,S,15300.4569,E,15.71,48.26,100909,,*17
67479.71
$GPVTG,48.26,T,,M,15.71,N,29.1,K*50
67557.84
$GPGGA,040623.000,2730.0793,S,15300.4608,E,1,10,0.8,32.6,M,37.1,M,,0000*7F
67729.82
$GPGSA,A,3,06,31,19,14,26,22,03,18,32,11,,,1.8,0.8,1.7*33
67886.11
$GPRMC,040623.000,A,2730.0793,S,15300.4608,E,18.09,47.01,100909,,*18
68010.96
$GPVTG,47.01,T,,M,18.09,N,33.5,K*57
68120.34
$GPGGA,040624.000,2730.0756,S,15300.4653,E,1,10,0.8,32.4,M,37.1,M,,0000*7D
68729.70
$GPGSA,A,3,06,31,19,14,26,22,03,18,32,11,,,1.8,0.8,1.7*33
68886.11
$GPRMC,040624.000,A,2730.0756,S,15300.4653,E,20.55,47.76,100909,,*1A
69057.81
$GPVTG,47.76,T,,M,20.55,N,38.1,K*5A
69089.55
$GPGGA,040625.000,2730.0716,S,15300.4704,E,1,09,1.0,32.2,M,37.1,M,,0000*7C
69714.06
$GPGSA,A,3,06,31,19,14,26,22,03,32,11,,,,2.7,1.0,2.5*3E
69854.92
$GPRMC,040625.000,A,2730.0716,S,15300.4704,E,22.74,48.03,100909,,*10
70057.93
$GPVTG,48.03,T,,M,22.74,N,42.1,K*5B
70089.07
$GPGGA,040626.000,2730.0671,S,15300.4760,E,1,09,1.0,32.0,M,37.1,M,,0000*7F
70714.03
$GPGSA,A,3,06,31,19,14,26,22,03,32,11,,,,2.7,1.0,2.5*3E
70854.67
$GPRMC,040626.000,A,2730.0671,S,15300.4760,E,25.19,48.83,100909,,*15
71010.91
$GPVTG,48.83,T,,M,25.19,N,46.6,K*5C
71089.39
$GPGGA,040627.000,2730.0623,S,15300.4822,E,1,10,0.8,31.9,M,37.1,M,,0000*7B
71762.73
$GPGSA,A,3,06,31,19,14,26,22,03,18,32,11,,,1.8,0.8,1.7*33
71870.26
$GPGSV,3,1,11,31,50,017,44,14,47,153,43,22,37,104,45,26,27,141,42*7F
72057.76
$GPGSV,3,2,11,19,26,294,39,11,21,228,41,32,18,238,40,03,14,319,33*77
72167.15
$GPGSV,3,3,11,06,13,333,34,18,08,084,31,30,03,096,19*41
72307.81
$GPRMC,040627.000,A,2730.0623,S,15300.4822,E,27.21,49.53,100909,,*1F
72464.15
$GPVTG,49.53,T,,M,27.21,N,50.4,K*5C
72557.77
$GPGGA,040628.000,2730.0572,S,15300.4889,E,1,10,0.8,31.9,M,37.1,M,,0000*72
72760.88
$GPGSA,A,3,06,31,19,14,26,22,03,18,32,11,,,1.8,0.8,1.7*33
72870.28
$GPRMC,040628.000,A,2730.0572,S,15300.4889,E,28.89,49.63,100909,,*18
73010.94
$GPVTG,49.63,T,,M,28.89,N,53.5,K*50
73120.25
$GPGGA,040629.000,2730.0519,S,15300.4959,E,1,10,0.8,32.1,M,37.1,M,,0000*79
73760.91
$GPGSA,A,3,06,31,19,14,26,22,03,18,32,11,,,1.8,0.8,1.7*33
73870.27
$GPRMC,040629.000,A,2730.0519,S,15300.4959,E,29.51,49.56,100909,,*1A
74010.89
$GPVTG,49.56,T,,M,29.51,N,54.6,K*56
74120.25
$GPGGA,040630.000,2730.0465,S,15300.5030,E,1,10,0.8,32.3,M,37.1,M,,0000*7E
74760.84
$GPGSA,A,3,06,31,19,14,26,22,03,18,32,11,,,1.8,0.8,1.7*33
74870.24
$GPRMC,040630.000,A,2730.0465,S,15300.5030,E,30.29,49.83,100909,,*10
75010.91
$GPVTG,49.83,T,,M,30.29,N,56.1,K*5C
75089.00
$GPGGA,040631.000,2730.0410,S,15300.5104,E,1,10,0.8,32.5,M,37.1,M,,0000*7D
75714.07
$GPGSA,A,3,06,31,19,14,26,22,03,18,32,11,,,1.8,0.8,1.7*33
75870.44
$GPRMC,040631.000,A,2730.0410,S,15300.5104,E,31.18,50.07,100909,,*12
76010.84
$GPVTG,50.07,T,,M,31.18,N,57.7,K*5C
76088.99
$GPGGA,040632.000,2730.0353,S,15300.5180,E,1,10,0.8,32.5,M,37.1,M,,0000*72
76745.30
$GPGSA,A,3,06,31,19,14,26,22,03,18,32,11,,,1.8,0.8,1.7*33
76854.61
$GPGSV,3,1,11,31,50,017,44,14,47,153,43,22,37,104,45,26,27,141,42*7F
77042.09
$GPGSV,3,2,11,19,26,294,41,11,21,228,41,32,18,238,40,03,14,319,36*7D
77213.94
$GPGSV,3,3,11,06,13,333,38,18,08,084,34,30,03,096,18*49
77323.31
$GPRMC,040632.000,A,2730.0353,S,15300.5180,E,31.75,49.80,100909,,*11
77463.99
$GPVTG,49.80,T,,M,31.75,N,58.8,K*50
77542.07
$GPGGA,040633.000,2730.0295,S,15300.5256,E,1,10,0.8,32.6,M,37.1,M,,0000*73
77745.80
$GPGSA,A,3,06,31,19,14,26,22,03,18,32,11,,,1.8,0.8,1.7*33
77917.06
$GPRMC,040633.000,A,2730.0295,S,15300.5256,E,32.20,49.54,100909,,*19
78026.43
$GPVTG,49.54,T,,M,32.20,N,59.6,K*55
78120.22
$GPGGA,040634.000,2730.0236,S,15300.5334,E,1,10,0.8,32.8,M,37.1,M,,0000*76
78745.17
$GPGSA,A,3,06,31,19,14,26,22,03,18,32,11,,,1.8,0.8,1.7*33
78870.21
$GPRMC,040634.000,A,2730.0236,S,15300.5334,E,32.72,49.65,100909,,*17
79042.05
$GPVTG,49.65,T,,M,32.72,N,60.6,K*5A
79104.61
$GPGGA,040635.000,2730.0176,S,15300.5413,E,1,10,0.8,32.8,M,37.1,M,,0000*72
79745.20
$GPGSA,A,3,06,31,19,14,26,22,03,18,32,11,,,1.8,0.8,1.7*33
79854.53
$GPRMC,040635.000,A,2730.0176,S,15300.5413,E,33.15,49.48,100909,,*1C
80026.41
$GPVTG,49.48,T,,M,33.15,N,61.4,K*56
80104.55
$GPGGA,040636.000,2730.0115,S,15300.5492,E,1,10,0.8,33.0,M,37.1,M,,0000*74
80729.54
$GPGSA,A,3,06,31,19,14,26,22,03,18,32,11,,,1.8,0.8,1.7*33
80870.16
$GPRMC,040636.000,A,2730.0115,S,15300.5492,E,33.53,49.49,100909,,*10
81042.02
$GPVTG,49.49,T,,M,33.53,N,62.1,K*53
81104.53
$GPGGA,040637.000,2730.0054,S,15300.5573,E,1,10,0.8,33.2,M,37.1,M,,0000*7D
81745.60
$GPGSA,A,3,06,31,19,14,26,22,03,18,32,11,,,1.8,0.8,1.7*33
81854.50
$GPGSV,3,1,11,31,50,017,44,14,47,153,43,22,37,104,46,26,27,141,42*7C
82026.38
$GPGSV,3,2,11,19,26,294,41,11,21,228,42,32,18,238,40,03,14,319,37*7F
82198.26
$GPGSV,3,3,11,06,13,333,37,18,08,084,31,30,03,096,18*43
82307.62
$GPRMC,040637.000,A,2730.0054,S,15300.5573,E,33.78,49.87,100909,,*10
82479.50
$GPVTG,49.87,T,,M,33.78,N,62.6,K*5F
82557.65
$GPGGA,040638.000,2729.9992,S,15300.5653,E,1,10,0.8,33.5,M,37.1,M,,0000*76
82729.49
$GPGSA,A,3,06,31,19,14,26,22,03,18,32,11,,,1.8,0.8,1.7*33
82901.59
$GPRMC,040638.000,A,2729.9992,S,15300.5653,E,33.98,49.49,100909,,*10
83073.26
$GPVTG,49.49,T,,M,33.98,N,62.9,K*5C
83104.49
$GPGGA,040639.000,2729.9931,S,15300.5734,E,1,10,0.8,34.1,M,37.1,M,,0000*7D
83714.18
$GPGSA,A,3,06,31,19,14,26,22,03,18,32,11,,,1.8,0.8,1.7*33
83870.20
$GPRMC,040639.000,A,2729.9931,S,15300.5734,E,33.94,49.52,100909,,*1E
84026.37
$GPVTG,49.52,T,,M,33.94,N,62.9,K*5A
84104.48
$GPGGA,040640.000,2729.9870,S,15300.5814,E,1,10,0.8,34.7,M,37.1,M,,0000*7C
84713.84
$GPGSA,A,3,06,31,19,14,26,22,03,18,32,11,,,1.8,0.8,1.7*33
84854.68
$GPRMC,040640.000,A,2729.9870,S,15300.5814,E,33.59,49.44,100909,,*1F
85026.36
$GPVTG,49.44,T,,M,33.59,N,62.2,K*57
85104.58
$GPGGA,040641.000,2729.9809,S,15300.5893,E,1,10,0.8,35.3,M,37.1,M,,0000*79
85729.81
$GPGSA,A,3,06,31,19,14,26,22,03,18,32,11,,,1.8,0.8,1.7*33
85901.36
$GPRMC,040641.000,A,2729.9809,S,15300.5893,E,32.82,49.17,100909,,*1E
86010.70
$GPVTG,49.17,T,,M,32.82,N,60.8,K*5E
86104.48
$GPGGA,040642.000,2729.9750,S,15300.5970,E,1,10,0.8,35.8,M,37.1,M,,0000*7E
86776.30
$GPGSA,A,3,06,31,19,14,26,22,03,18,32,11,,,1.8,0.8,1.7*33
86885.69
$GPGSV,3,1,11,31,50,017,44,14,47,153,43,22,37,104,45,26,27,141,42*7F
87010.69
$GPGSV,3,2,11,19,26,294,42,11,21,228,42,32,18,238,40,03,14,319,33*78
87182.54
$GPGSV,3,3,11,06,13,333,32,18,08,084,31,30,03,096,17*49
87307.64
$GPRMC,040642.000,A,2729.9750,S,15300.5970,E,32.09,49.15,100909,,*13
87479.44
$GPVTG,49.15,T,,M,32.09,N,59.4,K*59
87541.97
$GPGGA,040643.000,2729.9692,S,15300.6045,E,1,10,0.8,36.0,M,37.1,M,,0000*77
87714.14
$GPGSA,A,3,06,31,19,14,26,22,03,18,32,11,,,1.8,0.8,1.7*33
87854.50
$GPRMC,040643.000,A,2729.9692,S,15300.6045,E,31.38,49.00,100909,,*14
88026.30
$GPVTG,49.00,T,,M,31.38,N,58.1,K*58
88104.44
$GPGGA,040644.000,2729.9634,S,15300.6119,E,1,10,0.8,36.1,M,37.1,M,,0000*75
88713.79
$GPGSA,A,3,06,31,19,14,26,22,03,18,32,11,,,1.8,0.8,1.7*33
88854.41
$GPRMC,040644.000,A,2729.9634,S,15300.6119,E,30.93,49.11,100909,,*17
89010.66
$GPVTG,49.11,T,,M,30.93,N,57.3,K*55
89120.08
$GPGGA,040645.000,2729.9578,S,15300.6191,E,1,09,0.8,36.0,M,37.1,M,,0000*76
89760.66
$GPGSA,A,3,06,31,19,14,26,22,18,32,11,,,,1.9,0.8,1.7*31
89854.44
$GPRMC,040645.000,A,2729.9578,S,15300.6191,E,30.00,49.13,100909,,*15
90010.72
$GPVTG,49.13,T,,M,30.00,N,55.6,K*5A
90104.39
$GPGGA,040646.000,2729.9527,S,15300.6258,E,1,10,0.8,36.0,M,37.1,M,,0000*71
90713.75
$GPGSA,A,3,06,31,19,14,26,22,03,18,32,11,,,1.8,0.8,1.7*33
90854.40
$GPRMC,040646.000,A,2729.9527,S,15300.6258,E,26.02,49.15,100909,,*19
91010.64
$GPVTG,49.15,T,,M,26.02,N,48.2,K*51
91104.39
$GPGGA,040647.000,2729.9483,S,15300.6314,E,1,10,0.8,35.9,M,37.1,M,,0000*7C
91713.75
$GPGSA,A,3,06,31,19,14,26,22,03,18,32,11,,,1.8,0.8,1.7*33
91854.36
$GPGSV,3,1,11,31,50,017,44,14,47,153,43,22,37,104,42,26,27,141,42*78
92057.48
$GPGSV,3,2,11,19,26,294,42,11,22,228,42,32,18,238,40,03,14,319,32*7A
92166.86
$GPGSV,3,3,11,06,13,333,29,18,08,084,27,30,03,096,17*44
92307.50
$GPRMC,040647.000,A,2729.9483,S,15300.6314,E,22.06,48.89,100909,,*1A
92463.89
$GPVTG,48.89,T,,M,22.06,N,40.8,K*57
92541.91
$GPGGA,040648.000,2729.9447,S,15300.6360,E,1,10,0.8,35.9,M,37.1,M,,0000*78
92760.61
$GPGSA,A,3,06,31,19,14,26,22,03,18,32,11,,,1.8,0.8,1.7*33
92870.01
$GPRMC,040648.000,A,2729.9447,S,15300.6360,E,16.93,47.71,100909,,*1D
93010.66
$GPVTG,47.71,T,,M,16.93,N,31.4,K*5E
93120.00
$GPGGA,040649.000,2729.9420,S,15300.6389,E,1,10,0.8,35.8,M,37.1,M,,0000*7E
93760.60
$GPGSA,A,3,06,31,19,14,26,22,03,18,32,11,,,1.8,0.8,1.7*33
93870.43
$GPRMC,040649.000,A,2729.9420,S,15300.6389,E,11.48,41.23,100909,,*1A
94010.61
$GPVTG,41.23,T,,M,11.48,N,21.3,K*58
94119.94
$GPGGA,040650.000,2729.9398,S,15300.6404,E,1,10,0.8,35.7,M,37.1,M,,0000*7F
94713.73
$GPGSA,A,3,06,31,19,14,26,22,03,18,32,11,,,1.8,0.8,1.7*33
94885.60
$GPRMC,040650.000,A,2729.9398,S,15300.6404,E,7.96,25.95,100909,,*2F
95042.46
$GPVTG,25.95,T,,M,7.96,N,14.7,K*61
95104.32
$GPGGA,040651.000,2729.9376,S,15300.6411,E,1,09,1.0,35.7,M,37.1,M,,0000*7B
95760.56
$GPGSA,A,3,06,31,19,14,26,22,03,32,11,,,,2.7,1.0,2.5*3E
95838.71
$GPRMC,040651.000,A,2729.9376,S,15300.6411,E,8.71,9.55,100909,,*1E
96041.80
$GPVTG,9.55,T,,M,8.71,N,16.1,K*51
96073.06
$GPGGA,040652.000,2729.9351,S,15300.6408,E,1,10,0.8,35.6,M,37.1,M,,0000*75
96760.57
$GPGSA,A,3,06,31,19,14,26,22,03,18,32,11,,,1.8,0.8,1.7*33
96869.92
$GPGSV,3,1,11,31,50,017,45,14,47,153,42,22,37,104,43,26,27,141,35*79
97010.56
$GPGSV,3,2,11,19,26,294,41,11,22,228,35,32,18,238,35,03,14,319,26*7E
97213.68
$GPGSV,3,3,11,06,13,333,22,18,08,084,31,30,03,096,18*47
97323.04
$GPRMC,040652.000,A,2729.9351,S,15300.6408,E,10.34,345.43,100909,,*24
97463.72
$GPVTG,345.43,T,,M,10.34,N,19.1,K*6A
97573.04
$GPGGA,040653.000,2729.9323,S,15300.6391,E,1,10,0.8,35.5,M,37.1,M,,0000*75
97744.94
$GPGSA,A,3,06,31,19,14,26,22,03,18,32,11,,,1.8,0.8,1.7*33
97869.91
$GPRMC,040653.000,A,2729.9323,S,15300.6391,E,12.47,323.28,100909,,*2C
98026.17
$GPVTG,323.28,T,,M,12.47,N,23.1,K*68
98119.90
$GPGGA,040654.000,2729.9299,S,15300.6357,E,1,10,0.8,35.3,M,37.1,M,,0000*7E
98713.67
$GPGSA,A,3,06,31,19,14,26,22,03,18,32,11,,,1.8,0.8,1.7*33
98870.04
$GPRMC,040654.000,A,2729.9299,S,15300.6357,E,15.00,299.16,100909,,*28
99026.51
$GPVTG,299.16,T,,M,15.00,N,27.8,K*6C
99119.95
$GPGGA,040655.000,2729.9283,S,15300.6308,E,1,10,0.8,35.6,M,37.1,M,,0000*7B
99713.65
$GPGSA,A,3,06,31,19,14,26,22,03,18,32,11,,,1.8,0.8,1.7*33
99869.90
$GPRMC,040655.000,A,2729.9283,S,15300.6308,E,17.31,286.10,100909,,*20
100026.12
$GPVTG,286.10,T,,M,17.31,N,32.1,K*69
100119.86
$GPGGA,040656.000,2729.9268,S,15300.6253,E,1,10,0.8,35.1,M,37.1,M,,0000*75
100744.86
$GPGSA,A,3,06,31,19,14,26,22,03,18,32,11,,,1.8,0.8,1.7*33
100854.28
$GPRMC,040656.000,A,2729.9268,S,15300.6253,E,18.79,285.87,100909,,*27
101026.16
$GPVTG,285.87,T,,M,18.79,N,34.8,K*68
101104.45
$GPGGA,040657.000,2729.9252,S,15300.6192,E,1,09,0.8,35.0,M,37.1,M,,0000*7A
101729.22
$GPGSA,A,3,06,31,19,14,26,22,18,32,11,,,,1.9,0.8,1.7*31
101854.27
$GPGSV,3,1,11,31,50,017,45,14,47,153,41,22,37,104,42,26,27,141,41*78
102026.09
$GPGSV,3,2,11,19,26,294,42,11,22,228,32,32,18,238,31,03,14,319,*7A
102166.79
$GPGSV,3,3,11,06,13,333,21,18,08,084,29,30,03,096,18*4D
102322.97
$GPRMC,040657.000,A,2729.9252,S,15300.6192,E,21.23,288.50,100909,,*23
102479.21
$GPVTG,288.50,T,,M,21.23,N,39.3,K*6C
102541.72
$GPGGA,040658.000,2729.9229,S,15300.6125,E,1,10,0.8,34.5,M,37.1,M,,0000*79
102729.26
$GPGSA,A,3,06,31,19,14,26,22,03,18,32,11,,,1.8,0.8,1.7*33
102869.86
$GPRMC,040658.000,A,2729.9229,S,15300.6125,E,23.94,293.34,100909,,*2A
103041.71
$GPVTG,293.34,T,,M,23.94,N,44.3,K*60
103104.24
$GPGGA,040659.000,2729.9198,S,15300.6054,E,1,10,0.8,33.1,M,37.1,M,,0000*75
103744.87
$GPGSA,A,3,06,31,19,14,26,22,03,18,32,11,,,1.8,0.8,1.7*33
103854.20
$GPRMC,040659.000,A,2729.9198,S,15300.6054,E,25.72,296.83,100909,,*22
104072.95
$GPVTG,296.83,T,,M,25.72,N,47.6,K*61
104104.20
$GPGGA,040700.000,2729.9163,S,15300.5981,E,1,10,0.8,32.1,M,37.1,M,,0000*7F
104744.86
$GPGSA,A,3,06,31,19,14,26,22,03,18,32,11,,,1.8,0.8,1.7*33
104854.23
$GPRMC,040700.000,A,2729.9163,S,15300.5981,E,26.54,299.91,100909,,*22
105072.95
$GPVTG,299.91,T,,M,26.54,N,49.1,K*63
105104.20
$GPGGA,040701.000,2729.9124,S,15300.5906,E,1,10,0.8,31.1,M,37.1,M,,0000*71
105713.55
$GPGSA,A,3,06,31,19,14,26,22,03,18,32,11,,,1.8,0.8,1.7*33
105869.83
$GPRMC,040701.000,A,2729.9124,S,15300.5906,E,27.70,300.67,100909,,*20
106026.05
$GPVTG,300.67,T,,M,27.70,N,51.3,K*67
106104.21
$GPGGA,040702.000,2729.9085,S,15300.5828,E,1,10,0.8,30.0,M,37.1,M,,0000*75
106729.28
$GPGSA,A,3,06,31,19,14,26,22,03,18,32,11,,,1.8,0.8,1.7*33
106901.06
$GPGSV,3,1,11,31,50,017,44,14,47,153,39,22,37,104,43,26,27,141,36*77
107010.75
$GPGSV,3,2,11,19,26,294,42,11,22,228,36,32,18,238,34,03,14,319,37*7F
107182.27
$GPGSV,3,3,11,06,13,333,33,18,08,084,22,30,03,096,17*4A
107307.56
$GPRMC,040702.000,A,2729.9085,S,15300.5828,E,28.67,295.89,100909,,*20
107526.06
$GPVTG,295.89,T,,M,28.67,N,53.1,K*63
107557.27
$GPGGA,040703.000,2729.9058,S,15300.5742,E,1,10,0.8,29.5,M,37.1,M,,0000*7A
107776.04
$GPGSA,A,3,06,31,19,14,26,22,03,18,32,11,,,1.8,0.8,1.7*33
107854.18
$GPRMC,040703.000,A,2729.9058,S,15300.5742,E,28.76,284.48,100909,,*2F
108041.66
$GPVTG,284.48,T,,M,28.76,N,53.3,K*6C
108119.84
$GPGGA,040704.000,2729.9048,S,15300.5651,E,1,10,0.8,28.9,M,37.1,M,,0000*72
108713.57
$GPGSA,A,3,06,31,19,14,26,22,03,18,32,11,,,1.8,0.8,1.7*33
108854.23
$GPRMC,040704.000,A,2729.9048,S,15300.5651,E,29.14,270.29,100909,,*23
109026.07
$GPVTG,270.29,T,,M,29.14,N,54.0,K*61
109104.21
$GPGGA,040705.000,2729.9053,S,15300.5558,E,1,10,0.8,27.7,M,37.1,M,,0000*72
109713.60
$GPGSA,A,3,06,31,19,14,26,22,03,18,32,11,,,1.8,0.8,1.7*33
109854.13
$GPRMC,040705.000,A,2729.9053,S,15300.5558,E,30.53,262.42,100909,,*27
110026.01
$GPVTG,262.42,T,,M,30.53,N,56.5,K*63
110119.75
$GPGGA,040706.000,2729.9067,S,15300.5462,E,1,10,0.8,25.7,M,37.1,M,,0000*7C
110729.13
$GPGSA,A,3,06,31,19,14,26,22,03,18,32,11,,,1.8,0.8,1.7*33
110901.00
$GPRMC,040706.000,A,2729.9067,S,15300.5462,E,31.21,258.42,100909,,*26
111010.79
$GPVTG,258.42,T,,M,31.21,N,57.8,K*62
111104.13
$GPGGA,040707.000,2729.9085,S,15300.5365,E,1,10,0.8,24.0,M,37.1,M,,0000*77
111729.12
$GPGSA,A,3,06,31,19,14,26,22,03,18,32,11,,,1.8,0.8,1.7*33
111885.35
$GPGSV,3,1,11,31,50,017,44,14,47,153,36,22,37,104,33,26,27,141,31*78
112057.22
$GPGSV,3,2,11,19,26,294,42,11,22,228,38,32,18,238,34,03,14,319,40*71
112166.61
$GPGSV,3,3,11,06,13,333,36,18,08,084,15,30,03,096,15*49
112323.18
$GPRMC,040707.000,A,2729.9085,S,15300.5365,E,31.69,258.45,100909,,*20
112464.37
$GPVTG,258.45,T,,M,31.69,N,58.7,K*69
112604.09
$GPGGA,040708.000,2729.9100,S,15300.5268,E,1,10,0.8,22.3,M,37.1,M,,0000*7D
112760.43
$GPGSA,A,3,06,31,19,14,26,22,03,18,32,11,,,1.8,0.8,1.7*33
112854.10
$GPRMC,040708.000,A,2729.9100,S,15300.5268,E,31.39,261.42,100909,,*27
113041.57
$GPVTG,261.42,T,,M,31.39,N,58.1,K*67
113120.17
$GPGGA,040709.000,2729.9108,S,15300.5170,E,1,10,0.8,21.3,M,37.1,M,,0000*7D
113729.10
$GPGSA,A,3,06,31,19,14,26,22,03,18,32,11,,,1.8,0.8,1.7*33
113885.31
$GPRMC,040709.000,A,2729.9108,S,15300.5170,E,30.87,266.81,100909,,*28
114057.19
$GPVTG,266.81,T,,M,30.87,N,57.2,K*67
114119.76
$GPGGA,040710.000,2729.9107,S,15300.5072,E,1,10,0.8,20.6,M,37.1,M,,0000*7D
114713.45
$GPGSA,A,3,06,31,19,14,26,22,03,18,32,11,,,1.8,0.8,1.7*33
114885.31
$GPRMC,040710.000,A,2729.9107,S,15300.5072,E,30.98,274.98,100909,,*29
115057.18
$GPVTG,274.98,T,,M,30.98,N,57.4,K*64
115104.27
$GPGGA,040711.000,2729.9096,S,15300.4976,E,1,10,0.8,19.9,M,37.1,M,,0000*7C
115760.31
$GPGSA,A,3,06,31,19,14,26,22,03,18,32,11,,,1.8,0.8,1.7*33
115869.68
$GPRMC,040711.000,A,2729.9096,S,15300.4976,E,29.90,279.53,100909,,*27
116010.33
$GPVTG,279.53,T,,M,29.90,N,55.4,K*6C
116119.65
$GPGGA,040712.000,2729.9081,S,15300.4883,E,1,10,0.8,19.9,M,37.1,M,,0000*72
116713.41
$GPGSA,A,3,06,31,19,14,26,22,03,18,32,11,,,1.8,0.8,1.7*33
116885.29
$GPGSV,3,1,11,31,50,017,45,14,47,153,41,22,37,104,40,26,27,141,36*7A
117025.92
$GPGSV,3,2,11,19,26,294,42,11,22,228,27,32,18,238,27,03,14,319,27*7C
117166.64
$GPGSV,3,3,11,06,13,333,26,18,08,084,14,30,03,096,*4D
117291.52
$GPRMC,040712.000,A,2729.9081,S,15300.4883,E,29.06,280.81,100909,,*2F
117510.26
$GPVTG,280.81,T,,M,29.06,N,53.8,K*60
117588.40
$GPGGA,040713.000,2729.9066,S,15300.4791,E,1,10,0.8,20.3,M,37.1,M,,0000*76
117760.28
$GPGSA,A,3,06,31,19,14,26,22,03,18,32,11,,,1.8,0.8,1.7*33
117869.68
$GPRMC,040713.000,A,2729.9066,S,15300.4791,E,28.79,281.55,100909,,*2A
118041.74
$GPVTG,281.55,T,,M,28.79,N,53.3,K*6A
118104.01
$GPGGA,040714.000,2729.9050,S,15300.4703,E,1,10,0.8,19.9,M,37.1,M,,0000*7F
118713.39
$GPGSA,A,3,06,31,19,14,26,22,03,18,32,11,,,1.8,0.8,1.7*33
118885.25
$GPRMC,040714.000,A,2729.9050,S,15300.4703,E,27.95,282.79,100909,,*23
119041.50
$GPVTG,282.79,T,,M,27.95,N,51.8,K*63
119104.30
$GPGGA,040715.000,2729.9036,S,15300.4613,E,1,10,0.8,21.3,M,37.1,M,,0000*7F
119744.73
$GPGSA,A,3,06,31,19,14,26,22,03,18,32,11,,,1.8,0.8,1.7*33
119869.64
$GPRMC,040715.000,A,2729.9036,S,15300.4613,E,28.25,279.66,100909,,*2C
120025.86
$GPVTG,279.66,T,,M,28.25,N,52.3,K*65
120119.62
$GPGGA,040716.000,2729.9023,S,15300.4525,E,1,10,0.8,23.0,M,37.1,M,,0000*7F
120713.40
$GPGSA,A,3,06,31,19,14,26,22,03,18,32,11,,,1.8,0.8,1.7*33
120869.71
$GPRMC,040716.000,A,2729.9023,S,15300.4525,E,27.21,280.54,100909,,*21
121041.49
$GPVTG,280.54,T,,M,27.21,N,50.4,K*6C
121103.98
$GPGGA,040717.000,2729.9010,S,15300.4440,E,1,10,0.8,23.1,M,37.1,M,,0000*7D
121744.59
$GPGSA,A,3,06,31,19,14,26,22,03,18,32,11,,,1.8,0.8,1.7*33
121916.46
$GPGSV,3,1,11,31,50,018,45,14,46,153,42,22,37,104,42,26,27,141,43*77
122025.84
$GPGSV,3,2,11,19,25,295,42,11,22,228,32,32,19,238,30,03,14,319,35*7E
122213.34
$GPGSV,3,3,11,06,13,333,30,18,08,084,34,30,03,096,*48
122291.50
$GPRMC,040717.000,A,2729.9010,S,15300.4440,E,27.20,279.82,100909,,*2E
122478.94
$GPVTG,279.82,T,,M,27.20,N,50.4,K*60
122541.49
$GPGGA,040718.000,2729.8997,S,15300.4355,E,1,10,0.8,23.1,M,37.1,M,,0000*76
122728.94
$GPGSA,A,3,06,31,19,14,26,22,03,18,32,11,,,1.8,0.8,1.7*33
122916.45
$GPRMC,040718.000,A,2729.8997,S,15300.4355,E,27.67,279.39,100909,,*26
123025.85
$GPVTG,279.39,T,,M,27.67,N,51.3,K*65
123103.97
$GPGGA,040719.000,2729.8982,S,15300.4269,E,1,10,0.8,22.2,M,37.1,M,,0000*7F
123728.95
$GPGSA,A,3,06,31,19,14,26,22,03,18,32,11,,,1.8,0.8,1.7*33
123869.59
$GPRMC,040719.000,A,2729.8982,S,15300.4269,E,28.55,280.31,100909,,*2D
124041.44
$GPVTG,280.31,T,,M,28.55,N,52.9,K*6C
124103.95
$GPGGA,040720.000,2729.8968,S,15300.4180,E,1,10,0.8,21.6,M,37.1,M,,0000*72
124728.96
$GPGSA,A,3,06,31,19,14,26,22,03,18,32,11,,,1.8,0.8,1.7*33
124853.95
$GPRMC,040720.000,A,2729.8968,S,15300.4180,E,29.08,279.74,100909,,*29
125025.83
$GPVTG,279.74,T,,M,29.08,N,53.8,K*62
125103.96
$GPGGA,040721.000,2729.8953,S,15300.4089,E,1,10,0.8,20.3,M,37.1,M,,0000*77
125728.92
$GPGSA,A,3,06,31,19,14,26,22,03,18,32,11,,,1.8,0.8,1.7*33
125869.58
$GPRMC,040721.000,A,2729.8953,S,15300.4089,E,30.16,280.14,100909,,*2F
126010.18
$GPVTG,280.14,T,,M,30.16,N,55.9,K*62
126103.92
$GPGGA,040722.000,2729.8940,S,15300.3995,E,1,10,0.8,19.2,M,37.1,M,,0000*7E
126744.53
$GPGSA,A,3,06,31,19,14,26,22,03,18,32,11,,,1.8,0.8,1.7*33
126853.92
$GPGSV,3,1,11,31,50,018,45,14,46,153,41,22,37,104,42,26,27,141,34*74
127025.79
$GPGSV,3,2,11,19,25,295,42,11,22,228,31,32,19,238,31,03,14,319,37*7E
127197.65
$GPGSV,3,3,11,06,13,333,39,18,08,084,26,30,03,096,*42
127307.02
$GPRMC,040722.000,A,2729.8940,S,15300.3995,E,30.71,278.68,100909,,*20
127478.92
$GPVTG,278.68,T,,M,30.71,N,56.9,K*6C
127557.03
$GPGGA,040723.000,2729.8926,S,15300.3899,E,1,10,0.8,18.1,M,37.1,M,,0000*70
127744.76
$GPGSA,A,3,06,31,19,14,26,22,03,18,32,11,,,1.8,0.8,1.7*33
127853.89
$GPRMC,040723.000,A,2729.8926,S,15300.3899,E,31.32,278.75,100909,,*26
128072.65
$GPVTG,278.75,T,,M,31.32,N,58.0,K*61
128103.89
$GPGGA,040724.000,2729.8912,S,15300.3801,E,1,10,0.8,17.0,M,37.1,M,,0000*7F
128775.75
$GPGSA,A,3,06,31,19,14,26,22,03,18,32,11,,,1.8,0.8,1.7*33
128854.08
$GPRMC,040724.000,A,2729.8912,S,15300.3801,E,31.54,279.52,100909,,*23
129025.77
$GPVTG,279.52,T,,M,31.54,N,58.4,K*61
129103.89
$GPGGA,040725.000,2729.8897,S,15300.3703,E,1,10,0.8,15.8,M,37.1,M,,0000*75
129729.00
$GPGSA,A,3,06,31,19,14,26,22,03,18,32,11,,,1.8,0.8,1.7*33
129900.77
$GPRMC,040725.000,A,2729.8897,S,15300.3703,E,31.63,280.07,100909,,*21
130010.16
$GPVTG,280.07,T,,M,31.63,N,58.6,K*61
130103.87
$GPGGA,040726.000,2729.8882,S,15300.3605,E,1,10,0.8,15.0,M,37.1,M,,0000*7D
130728.85
$GPGSA,A,3,06,31,19,14,26,22,03,18,32,11,,,1.8,0.8,1.7*33
130900.72
$GPRMC,040726.000,A,2729.8882,S,15300.3605,E,31.53,280.33,100909,,*25
131010.15
$GPVTG,280.33,T,,M,31.53,N,58.4,K*67
131119.46
$GPGGA,040727.000,2729.8866,S,15300.3507,E,1,10,0.8,14.1,M,37.1,M,,0000*77
131713.24
$GPGSA,A,3,06,31,19,14,26,22,03,18,32,11,,,1.8,0.8,1.7*33
131853.86
$GPGSV,3,1,11,31,50,018,45,14,46,153,42,22,37,104,43,26,27,141,37*75
132025.71
$GPGSV,3,2,11,19,25,295,43,11,22,228,39,32,19,238,39,03,14,319,38*70
132182.16
$GPGSV,3,3,11,06,13,333,40,18,08,084,30,30,03,096,*4B
132307.62
$GPRMC,040727.000,A,2729.8866,S,15300.3507,E,31.35,280.36,100909,,*2A
132478.83
$GPVTG,280.36,T,,M,31.35,N,58.1,K*67
132556.95
$GPGGA,040728.000,2729.8851,S,15300.3409,E,1,10,0.8,13.6,M,37.1,M,,0000*73
132728.85
$GPGSA,A,3,06,31,19,14,26,22,03,18,32,11,,,1.8,0.8,1.7*33
132900.69
$GPRMC,040728.000,A,2729.8851,S,15300.3409,E,31.54,279.44,100909,,*2A
133010.08
$GPVTG,279.44,T,,M,31.54,N,58.4,K*66
133103.83
$GPGGA,040729.000,2729.8837,S,15300.3310,E,1,10,0.8,13.2,M,37.1,M,,0000*79
133728.95
$GPGSA,A,3,06,31,19,14,26,22,03,18,32,11,,,1.8,0.8,1.7*33
133885.14
$GPRMC,040729.000,A,2729.8837,S,15300.3310,E,31.79,278.54,100909,,*2B
134010.06
$GPVTG,278.54,T,,M,31.79,N,58.9,K*64
134119.43
$GPGGA,040730.000,2729.8823,S,15300.3211,E,1,10,0.8,13.0,M,37.1,M,,0000*76
134713.18
$GPGSA,A,3,06,31,19,14,26,22,03,18,32,11,,,1.8,0.8,1.7*33
134853.85
$GPRMC,040730.000,A,2729.8823,S,15300.3211,E,32.14,279.78,100909,,*21
135057.11
$GPVTG,279.78,T,,M,32.14,N,59.5,K*6E
135119.44
$GPGGA,040731.000,2729.8807,S,15300.3111,E,1,10,0.8,13.0,M,37.1,M,,0000*72
135729.09
$GPGSA,A,3,06,31,19,14,26,22,03,18,32,11,,,1.8,0.8,1.7*33
135853.78
$GPRMC,040731.000,A,2729.8807,S,15300.3111,E,32.33,281.33,100909,,*28
136010.29
$GPVTG,281.33,T,,M,32.33,N,59.9,K*6F
136103.80
$GPGGA,040732.000,2729.8788,S,15300.3011,E,1,10,0.8,13.1,M,37.1,M,,0000*79
136713.14
$GPGSA,A,3,06,31,19,14,26,22,03,18,32,11,,,1.8,0.8,1.7*33
136869.54
$GPGSV,3,1,11,31,50,018,45,14,46,153,43,22,37,104,44,26,27,141,42*71
137056.91
$GPGSV,3,2,11,19,25,295,44,11,22,228,39,32,19,238,38,03,14,319,34*7A
137166.27
$GPGSV,3,3,11,06,13,333,30,18,08,084,37,30,03,096,*4B
137306.90
$GPRMC,040732.000,A,2729.8788,S,15300.3011,E,32.06,282.81,100909,,*2E
137463.25
$GPVTG,282.81,T,,M,32.06,N,59.4,K*6E
137556.96
$GPGGA,040733.000,2729.8770,S,15300.2913,E,1,10,0.8,13.8,M,37.1,M,,0000*7C
137744.42
$GPGSA,A,3,06,31,19,14,26,22,03,18,32,11,,,1.8,0.8,1.7*33
137869.40
$GPRMC,040733.000,A,2729.8770,S,15300.2913,E,31.70,282.12,100909,,*2A
138041.24
$GPVTG,282.12,T,,M,31.70,N,58.7,K*64
138119.41
$GPGGA,040734.000,2729.8753,S,15300.2816,E,1,10,0.8,14.7,M,37.1,M,,0000*76
138713.31
$GPGSA,A,3,06,31,19,14,26,22,03,18,32,11,,,1.8,0.8,1.7*33
138885.00
$GPRMC,040734.000,A,2729.8753,S,15300.2816,E,30.83,280.36,100909,,*21
139057.10
$GPVTG,280.36,T,,M,30.83,N,57.1,K*64
139103.80
$GPGGA,040735.000,2729.8740,S,15300.2723,E,1,09,0.8,15.8,M,37.1,M,,0000*7A
139713.39
$GPGSA,A,3,31,19,14,26,22,03,18,32,11,,,,1.9,0.8,1.7*34
139885.03
$GPRMC,040735.000,A,2729.8740,S,15300.2723,E,29.18,277.68,100909,,*22
140025.60
$GPVTG,277.68,T,,M,29.18,N,54.0,K*6F
140119.36
$GPGGA,040736.000,2729.8733,S,15300.2637,E,1,10,0.8,17.2,M,37.1,M,,0000*79
140759.98
$GPGSA,A,3,06,31,19,14,26,22,03,18,32,11,,,1.8,0.8,1.7*33
140869.34
$GPRMC,040736.000,A,2729.8733,S,15300.2637,E,26.47,273.99,100909,,*2E
141041.24
$GPVTG,273.99,T,,M,26.47,N,49.0,K*6C
141103.72
$GPGGA,040737.000,2729.8731,S,15300.2554,E,1,10,0.8,18.6,M,37.1,M,,0000*77
141713.13
$GPGSA,A,3,06,31,19,14,26,22,03,18,32,11,,,1.8,0.8,1.7*33
141869.32
$GPGSV,3,1,11,31,50,018,45,14,46,153,43,22,37,104,44,26,27,141,42*71
142025.57
$GPGSV,3,2,11,19,25,295,38,11,22,228,33,32,19,238,31,03,14,319,30*76
142166.23
$GPGSV,3,3,11,06,13,333,32,18,08,084,37,30,03,096,28*43
142338.08
$GPRMC,040737.000,A,2729.8731,S,15300.2554,E,26.84,268.60,100909,,*28
142478.73
$GPVTG,268.60,T,,M,26.84,N,49.7,K*68
142572.45
$GPGGA,040738.000,2729.8737,S,15300.2470,E,1,10,0.8,20.5,M,37.1,M,,0000*71
142791.23
$GPGSA,A,3,06,31,19,14,26,22,03,18,32,11,,,1.8,0.8,1.7*33
142869.46
$GPRMC,040738.000,A,2729.8737,S,15300.2470,E,26.91,263.60,100909,,*29
143041.24
$GPVTG,263.60,T,,M,26.91,N,49.8,K*68
143119.33
$GPGGA,040739.000,2729.8748,S,15300.2389,E,1,10,0.8,22.7,M,37.1,M,,0000*79
143713.11
$GPGSA,A,3,06,31,19,14,26,22,03,18,32,11,,,1.8,0.8,1.7*33
143869.47
$GPRMC,040739.000,A,2729.8748,S,15300.2389,E,25.99,259.36,100909,,*20
144025.58
$GPVTG,259.36,T,,M,25.99,N,48.1,K*61
144119.31
$GPGGA,040740.000,2729.8763,S,15300.2312,E,1,09,0.9,25.0,M,37.1,M,,0000*75
144713.07
$GPGSA,A,3,06,31,19,14,26,22,03,18,32,,,,1.9,0.9,1.7*33
144869.29
$GPRMC,040740.000,A,2729.8763,S,15300.2312,E,24.85,257.49,100909,,*2F
145041.47
$GPVTG,257.49,T,,M,24.85,N,46.0,K*64
145103.67
$GPGGA,040741.000,2729.8779,S,15300.2239,E,1,10,0.8,27.2,M,37.1,M,,0000*7E
145728.65
$GPGSA,A,3,06,31,19,14,26,22,03,18,32,11,,,1.8,0.8,1.7*33
145869.33
$GPRMC,040741.000,A,2729.8779,S,15300.2239,E,23.41,256.65,100909,,*2D
146041.20
$GPVTG,256.65,T,,M,23.41,N,43.4,K*65
146103.67
$GPGGA,040742.000,2729.8794,S,15300.2170,E,1,10,0.8,29.1,M,37.1,M,,0000*7D
146744.28
$GPGSA,A,3,06,31,19,14,26,22,03,18,32,11,,,1.8,0.8,1.7*33
146853.65
$GPGSV,3,1,11,31,50,018,45,14,46,153,40,22,37,104,43,26,27,141,38*78
147025.55
$GPGSV,3,2,11,19,25,295,38,11,22,228,36,32,19,238,35,03,14,319,25*73
147166.16
$GPGSV,3,3,11,06,13,333,24,18,08,084,32,30,03,096,26*4F
147306.79
$GPRMC,040742.000,A,2729.8794,S,15300.2170,E,22.71,256.41,100909,,*27
147478.64
$GPVTG,256.41,T,,M,22.71,N,42.1,K*65
147556.80
$GPGGA,040743.000,2729.8809,S,15300.2101,E,1,10,0.8,31.1,M,37.1,M,,0000*78
147728.64
$GPGSA,A,3,06,31,19,14,26,22,03,18,32,11,,,1.8,0.8,1.7*33
147869.37
$GPRMC,040743.000,A,2729.8809,S,15300.2101,E,22.45,256.41,100909,,*2C
148041.13
$GPVTG,256.41,T,,M,22.45,N,41.6,K*66
148103.64
$GPGGA,040744.000,2729.8824,S,15300.2034,E,1,10,0.8,32.7,M,37.1,M,,0000*72
148744.26
$GPGSA,A,3,06,31,19,14,26,22,03,18,32,11,,,1.8,0.8,1.7*33
148853.66
$GPRMC,040744.000,A,2729.8824,S,15300.2034,E,22.14,255.85,100909,,*2C
149072.37
$GPVTG,255.85,T,,M,22.14,N,41.0,K*6F
149103.63
$GPGGA,040745.000,2729.8839,S,15300.1965,E,1,10,0.8,34.0,M,37.1,M,,0000*70
149744.24
$GPGSA,A,3,06,31,19,14,26,22,03,18,32,11,,,1.8,0.8,1.7*33
149853.61
$GPRMC,040745.000,A,2729.8839,S,15300.1965,E,23.37,256.59,100909,,*2D
150025.51
$GPVTG,256.59,T,,M,23.37,N,43.3,K*6C
150103.63
$GPGGA,040746.000,2729.8855,S,15300.1893,E,1,09,1.0,35.1,M,37.1,M,,0000*70
150728.70
$GPGSA,A,3,06,31,19,14,26,22,03,32,11,,,,2.6,1.0,2.5*3F
150900.51
$GPRMC,040746.000,A,2729.8855,S,15300.1893,E,23.94,257.22,100909,,*28
151009.85
$GPVTG,257.22,T,,M,23.94,N,44.3,K*6F
151103.60
$GPGGA,040747.000,2729.8869,S,15300.1818,E,1,10,0.8,36.3,M,37.1,M,,0000*7D
151775.47
$GPGSA,A,3,06,31,19,14,26,22,03,18,32,11,,,1.8,0.8,1.7*33
151853.84
$GPGSV,3,1,12,31,51,018,45,14,46,153,41,22,37,104,42,26,27,141,40*75
152025.50
$GPGSV,3,2,12,19,25,295,39,11,22,228,36,32,19,238,35,03,14,320,30*7F
152181.73
$GPGSV,3,3,12,06,13,333,29,18,08,084,25,30,03,096,21,20,00,245,*71
152400.44
$GPRMC,040747.000,A,2729.8869,S,15300.1818,E,25.00,258.14,100909,,*24
152509.82
$GPVTG,258.14,T,,M,25.00,N,46.3,K*6C
152650.45
$GPGGA,040748.000,2729.8883,S,15300.1741,E,1,10,0.8,37.1,M,37.1,M,,0000*76
152759.83
$GPGSA,A,3,06,31,19,14,26,22,03,18,32,11,,,1.8,0.8,1.7*33
152884.86
$GPRMC,040748.000,A,2729.8883,S,15300.1741,E,25.33,259.35,100909,,*2E
153056.69
$GPVTG,259.35,T,,M,25.33,N,46.9,K*64
153134.86
$GPGGA,040749.000,2729.8896,S,15300.1662,E,1,10,0.8,37.4,M,37.1,M,,0000*76
153728.62
$GPGSA,A,3,06,31,19,14,26,22,03,18,32,11,,,1.8,0.8,1.7*33
153900.46
$GPRMC,040749.000,A,2729.8896,S,15300.1662,E,25.10,259.96,100909,,*23
154009.81
$GPVTG,259.96,T,,M,25.10,N,46.5,K*60
154119.22
$GPGGA,040750.000,2729.8907,S,15300.1586,E,1,10,0.8,37.7,M,37.1,M,,0000*7D
154712.93
$GPGSA,A,3,06,31,19,14,26,22,03,18,32,11,,,1.8,0.8,1.7*33
154853.58
$GPRMC,040750.000,A,2729.8907,S,15300.1586,E,24.43,261.93,100909,,*22
155025.46
$GPVTG,261.93,T,,M,24.43,N,45.3,K*6C
155103.57
$GPGGA,040751.000,2729.8913,S,15300.1511,E,1,10,0.8,37.8,M,37.1,M,,0000*78
155712.92
$GPGSA,A,3,06,31,19,14,26,22,03,18,32,11,,,1.8,0.8,1.7*33
155853.62
$GPRMC,040751.000,A,2729.8913,S,15300.1511,E,23.38,267.17,100909,,*29
156010.00
$GPVTG,267.17,T,,M,23.38,N,43.3,K*6B
156103.56
$GPGGA,040752.000,2729.8912,S,15300.1441,E,1,10,0.8,37.7,M,37.1,M,,0000*71
156712.92
$GPGSA,A,3,06,31,19,14,26,22,03,18,32,11,,,1.8,0.8,1.7*33
156853.57
$GPGSV,3,1,12,31,51,018,45,14,46,153,42,22,37,104,41,26,27,141,40*75
157025.67
$GPGSV,3,2,12,19,25,295,40,11,22,228,41,32,19,238,37,03,14,320,39*7A
157166.03
$GPGSV,3,3,12,06,13,333,38,18,08,084,37,30,03,096,23,20,00,245,*70
157337.92
$GPRMC,040752.000,A,2729.8912,S,15300.1441,E,21.65,275.09,100909,,*29
157556.64
$GPVTG,275.09,T,,M,21.65,N,40.1,K*6C
157588.42
$GPGGA,040753.000,2729.8908,S,15300.1376,E,1,10,0.8,38.2,M,37.1,M,,0000*72
157759.76
$GPGSA,A,3,06,31,19,14,26,22,03,18,32,11,,,1.8,0.8,1.7*33
157931.64
$GPRMC,040753.000,A,2729.8908,S,15300.1376,E,20.70,271.53,100909,,*2E
158041.02
$GPVTG,271.53,T,,M,20.70,N,38.3,K*6F
158134.79
$GPGGA,040754.000,2729.8913,S,15300.1311,E,1,10,0.8,38.9,M,37.1,M,,0000*75
158712.89
$GPGSA,A,3,06,31,19,14,26,22,03,18,32,11,,,1.8,0.8,1.7*33
158884.79
$GPRMC,040754.000,A,2729.8913,S,15300.1311,E,20.84,258.93,100909,,*2E
159056.62
$GPVTG,258.93,T,,M,20.84,N,38.6,K*66
159119.13
$GPGGA,040755.000,2729.8928,S,15300.1247,E,1,10,0.8,39.8,M,37.1,M,,0000*7E
159713.01
$GPGSA,A,3,06,31,19,14,26,22,03,18,32,11,,,1.8,0.8,1.7*33
159869.13
$GPRMC,040755.000,A,2729.8928,S,15300.1247,E,21.10,253.82,100909,,*22
160009.80
$GPVTG,253.82,T,,M,21.10,N,39.1,K*67
160119.10
$GPGGA,040756.000,2729.8945,S,15300.1184,E,1,10,0.8,40.5,M,37.1,M,,0000*79
160759.74
$GPGSA,A,3,06,31,19,14,26,22,03,18,32,11,,,1.8,0.8,1.7*33
160869.13
$GPRMC,040756.000,A,2729.8945,S,15300.1184,E,21.71,252.45,100909,,*2B
161041.00
$GPVTG,252.45,T,,M,21.71,N,40.2,K*67
161103.51
$GPGGA,040757.000,2729.8965,S,15300.1118,E,1,10,0.8,41.1,M,37.1,M,,0000*7A
161759.72
$GPGSA,A,3,06,31,19,14,26,22,03,18,32,11,,,1.8,0.8,1.7*33
161884.71
$GPGSV,3,1,12,31,51,018,45,14,46,153,43,22,37,104,43,26,27,141,41*77
162041.06
$GPGSV,3,2,12,19,25,295,40,11,22,228,40,32,19,238,37,03,14,320,32*70
162165.97
$GPGSV,3,3,12,06,13,333,31,18,08,084,26,30,03,096,22,20,00,245,*78
162322.23
$GPRMC,040757.000,A,2729.8965,S,15300.1118,E,22.42,251.26,100909,,*28
162494.10
$GPVTG,251.26,T,,M,22.42,N,41.5,K*64
162587.83
$GPGGA,040758.000,2729.8987,S,15300.1051,E,1,10,0.8,41.7,M,37.1,M,,0000*73
162759.83
$GPGSA,A,3,06,31,19,14,26,22,03,18,32,11,,,1.8,0.8,1.7*33
162916.40
$GPRMC,040758.000,A,2729.8987,S,15300.1051,E,23.42,248.31,100909,,*28
163087.84
$GPVTG,248.31,T,,M,23.42,N,43.4,K*68
163150.34
$GPGGA,040759.000,2729.9014,S,15300.0982,E,1,10,0.8,42.2,M,37.1,M,,0000*70
163759.74
$GPGSA,A,3,06,31,19,14,26,22,03,18,32,11,,,1.8,0.8,1.7*33
163869.09
$GPRMC,040759.000,A,2729.9014,S,15300.0982,E,24.71,246.10,100909,,*27
164009.71
$GPVTG,246.10,T,,M,24.71,N,45.8,K*68
164119.09
$GPGGA,040800.000,2729.9043,S,15300.0910,E,1,09,1.0,42.5,M,37.1,M,,0000*7C
164744.25
$GPGSA,A,3,06,31,19,14,26,22,03,32,11,,,,2.6,1.0,2.5*3F
164869.04
$GPRMC,040800.000,A,2729.9043,S,15300.0910,E,25.95,245.27,100909,,*21
165040.96
$GPVTG,245.27,T,,M,25.95,N,48.1,K*60
165103.43
$GPGGA,040801.000,2729.9076,S,15300.0837,E,1,10,0.8,42.4,M,37.1,M,,0000*7F
165712.85
$GPGSA,A,3,06,31,19,14,26,22,03,32,11,18,,,1.8,0.8,1.7*33
165853.42
$GPRMC,040801.000,A,2729.9076,S,15300.0837,E,26.41,241.93,100909,,*23
166025.28
$GPVTG,241.93,T,,M,26.41,N,48.9,K*69
166119.06
$GPGGA,040802.000,2729.9115,S,15300.0765,E,1,10,0.8,42.2,M,37.1,M,,0000*76
166712.92
$GPGSA,A,3,06,31,19,14,26,22,03,32,11,18,,,1.8,0.8,1.7*33
166869.03
$GPGSV,3,1,12,31,51,018,45,14,46,153,43,22,37,104,42,26,27,141,41*76
167040.92
$GPGSV,3,2,12,19,25,295,40,11,22,228,41,32,19,238,38,03,14,320,36*7A
167181.56
$GPGSV,3,3,12,06,13,333,33,18,08,084,30,30,03,096,22,20,00,245,*7D
167337.79
$GPRMC,040802.000,A,2729.9115,S,15300.0765,E,27.47,235.98,100909,,*23
167494.03
$GPVTG,235.98,T,,M,27.47,N,50.9,K*6F
167572.62
$GPGGA,040803.000,2729.9163,S,15300.0697,E,1,10,0.8,41.9,M,37.1,M,,0000*72
167775.25
$GPGSA,A,3,06,31,19,14,26,22,03,32,11,18,,,1.8,0.8,1.7*33
167884.66
$GPRMC,040803.000,A,2729.9163,S,15300.0697,E,28.13,228.99,100909,,*2C
168119.01
$GPVTG,228.99,T,,M,28.13,N,52.1,K*66
168150.26
$GPGGA,040804.000,2729.9219,S,15300.0633,E,1,10,0.8,41.9,M,37.1,M,,0000*75
168728.41
$GPGSA,A,3,06,31,19,14,26,22,03,32,11,18,,,1.8,0.8,1.7*33
168869.03
$GPRMC,040804.000,A,2729.9219,S,15300.0633,E,29.03,223.09,100909,,*29
169040.92
$GPVTG,223.09,T,,M,29.03,N,53.8,K*6C
169103.39
$GPGGA,040805.000,2729.9281,S,15300.0572,E,1,10,0.8,42.0,M,37.1,M,,0000*79
169728.40
$GPGSA,A,3,06,31,19,14,26,22,03,32,11,18,,,1.8,0.8,1.7*33
169869.06
$GPRMC,040805.000,A,2729.9281,S,15300.0572,E,29.70,219.91,100909,,*23
170040.88
$GPVTG,219.91,T,,M,29.70,N,55.0,K*6E
170103.52
$GPGGA,040806.000,2729.9347,S,15300.0513,E,1,10,0.8,42.5,M,37.1,M,,0000*73
170728.36
$GPGSA,A,3,06,31,19,14,26,22,03,32,11,18,,,1.8,0.8,1.7*33
170869.08
$GPRMC,040806.000,A,2729.9347,S,15300.0513,E,30.13,218.55,100909,,*28
171025.35
$GPVTG,218.55,T,,M,30.13,N,55.8,K*62
171118.98
$GPGGA,040807.000,2729.9414,S,15300.0455,E,1,10,0.8,43.2,M,37.1,M,,0000*76
171728.37
$GPGSA,A,3,06,31,19,14,26,22,03,32,11,18,,,1.8,0.8,1.7*33
171868.99
$GPGSV,3,1,12,31,51,018,45,14,46,153,40,22,37,104,42,26,27,141,38*7B
172025.22
$GPGSV,3,2,12,19,25,295,41,11,22,228,41,32,19,238,39,03,14,320,41*7A
172197.10
$GPGSV,3,3,12,06,13,333,34,18,08,084,29,30,03,096,22,20,00,245,*72
172322.13
$GPRMC,040807.000,A,2729.9414,S,15300.0455,E,29.81,217.56,100909,,*24
172494.02
$GPVTG,217.56,T,,M,29.81,N,55.2,K*67
172572.18
$GPGGA,040808.000,2729.9481,S,15300.0400,E,1,10,0.8,44.1,M,37.1,M,,0000*71
172744.04
$GPGSA,A,3,06,31,19,14,26,22,03,32,11,18,,,1.8,0.8,1.7*33
172900.69
$GPRMC,040808.000,A,2729.9481,S,15300.0400,E,29.29,215.19,100909,,*2C
173040.87
$GPVTG,215.19,T,,M,29.29,N,54.2,K*6D
173134.62
$GPGGA,040809.000,2729.9549,S,15300.0349,E,1,10,0.8,45.4,M,37.1,M,,0000*7B
173775.20
$GPGSA,A,3,06,31,19,14,26,22,03,32,11,18,,,1.8,0.8,1.7*33
173853.44
$GPRMC,040809.000,A,2729.9549,S,15300.0349,E,28.50,212.85,100909,,*2F
174009.57
$GPVTG,212.85,T,,M,28.50,N,52.8,K*6C
174103.32
$GPGGA,040810.000,2729.9615,S,15300.0302,E,1,10,0.8,46.8,M,37.1,M,,0000*79
174728.52
$GPGSA,A,3,06,31,19,14,26,22,03,32,11,18,,,1.8,0.8,1.7*33
174900.20
$GPRMC,040810.000,A,2729.9615,S,15300.0302,E,27.20,212.49,100909,,*2A
175009.56
$GPVTG,212.49,T,,M,27.20,N,50.4,K*6A
175103.32
$GPGGA,040811.000,2729.9677,S,15300.0257,E,1,10,0.8,47.8,M,37.1,M,,0000*7C
175728.30
$GPGSA,A,3,06,31,19,14,26,22,03,32,11,18,,,1.8,0.8,1.7*33
175853.32
$GPRMC,040811.000,A,2729.9677,S,15300.0257,E,25.21,213.98,100909,,*20
176025.24
$GPVTG,213.98,T,,M,25.21,N,46.7,K*60
176103.36
$GPGGA,040812.000,2729.9733,S,15300.0214,E,1,10,0.8,48.8,M,37.1,M,,0000*76
176728.33
$GPGSA,A,3,06,31,19,14,26,22,03,32,11,18,,,1.8,0.8,1.7*33
176900.18
$GPGSV,3,1,12,31,51,018,46,14,46,153,43,22,37,104,43,26,27,141,42*77
177009.57
$GPGSV,3,2,12,19,25,295,42,11,22,228,32,32,19,238,39,03,14,320,35*7E
177181.41
$GPGSV,3,3,12,06,13,333,35,18,08,084,31,30,03,096,26,20,00,245,*7E
177353.29
$GPRMC,040812.000,A,2729.9733,S,15300.0214,E,23.86,215.82,100909,,*23
177525.68
$GPVTG,215.82,T,,M,23.86,N,44.2,K*61
177603.30
$GPGGA,040813.000,2729.9786,S,15300.0171,E,1,10,0.8,49.6,M,37.1,M,,0000*76
177775.17
$GPGSA,A,3,06,31,19,14,26,22,03,32,11,18,,,1.8,0.8,1.7*33
177884.54
$GPRMC,040813.000,A,2729.9786,S,15300.0171,E,23.09,216.87,100909,,*2D
178056.40
